[
{"PostCode":"G1A1A3","Latitude":"46.808643","Longitude":"-71.215256","City":"Québec","Province":"QC","CityAlt":"Quebec","Neighborhood":"Vieux-Quebec","Time Zone":"UTC-05:00","Name":"America/Montreal","Area Code":"581"},
{"PostCode":"G1A1A4","Latitude":"46.808643","Longitude":"-71.215256","City":"Québec","Province":"QC","CityAlt":"Quebec","Neighborhood":"Vieux-Quebec","Time Zone":"UTC-05:00","Name":"America/Montreal","Area Code":"581"},
{"PostCode":"G1A1A5","Latitude":"46.808142","Longitude":"-71.214923","City":"Québec","Province":"QC","CityAlt":"Quebec","Neighborhood":"Vieux-Quebec","Time Zone":"UTC-05:00","Name":"America/Montreal","Area Code":"581"},
{"PostCode":"G1A1A8","Latitude":"46.817426","Longitude":"-71.212300","City":"Québec","Province":"QC","CityAlt":"Quebec","Neighborhood":"Vieux-Quebec","Time Zone":"UTC-05:00","Name":"America/Montreal","Area Code":"581"},
{"PostCode":"G1A1A9","Latitude":"46.817611","Longitude":"-71.212510","City":"Québec","Province":"QC","CityAlt":"Quebec","Neighborhood":"Vieux-Quebec","Time Zone":"UTC-05:00","Name":"America/Montreal","Area Code":"581"},
{"PostCode":"G1A1B4","Latitude":"46.809317","Longitude":"-71.216464","City":"Québec","Province":"QC","CityAlt":"Quebec","Neighborhood":"Vieux-Quebec","Time Zone":"UTC-05:00","Name":"America/Montreal","Area Code":"581"},
{"PostCode":"G1A1B5","Latitude":"46.811087","Longitude":"-71.214564","City":"Québec","Province":"QC","CityAlt":"Quebec","Neighborhood":"Vieux-Quebec","Time Zone":"UTC-05:00","Name":"America/Montreal","Area Code":"581"},
{"PostCode":"G1A1B7","Latitude":"46.817037","Longitude":"-71.211242","City":"Québec","Province":"QC","CityAlt":"Quebec","Neighborhood":"Vieux-Quebec","Time Zone":"UTC-05:00","Name":"America/Montreal","Area Code":"581"},
{"PostCode":"G1A1B8","Latitude":"46.817038","Longitude":"-71.211242","City":"Québec","Province":"QC","CityAlt":"Quebec","Neighborhood":"Vieux-Quebec","Time Zone":"UTC-05:00","Name":"America/Montreal","Area Code":"581"},
{"PostCode":"G1A1B9","Latitude":"46.817039","Longitude":"-71.211242","City":"Québec","Province":"QC","CityAlt":"Quebec","Neighborhood":"Vieux-Quebec","Time Zone":"UTC-05:00","Name":"America/Montreal","Area Code":"581"},
{"PostCode":"G1A1C1","Latitude":"46.817040","Longitude":"-71.211242","City":"Québec","Province":"QC","CityAlt":"Quebec","Neighborhood":"Vieux-Quebec","Time Zone":"UTC-05:00","Name":"America/Montreal","Area Code":"581"},
{"PostCode":"G1A1C2","Latitude":"46.817041","Longitude":"-71.211242","City":"Québec","Province":"QC","CityAlt":"Quebec","Neighborhood":"Vieux-Quebec","Time Zone":"UTC-05:00","Name":"America/Montreal","Area Code":"581"},
{"PostCode":"G1A1C3","Latitude":"46.817042","Longitude":"-71.211242","City":"Québec","Province":"QC","CityAlt":"Quebec","Neighborhood":"Vieux-Quebec","Time Zone":"UTC-05:00","Name":"America/Montreal","Area Code":"581"},
{"PostCode":"G1A1C5","Latitude":"46.809002","Longitude":"-71.215495","City":"Québec","Province":"QC","CityAlt":"Quebec","Neighborhood":"Vieux-Quebec","Time Zone":"UTC-05:00","Name":"America/Montreal","Area Code":"581"},
{"PostCode":"G1A1C6","Latitude":"46.816820","Longitude":"-71.212041","City":"Québec","Province":"QC","CityAlt":"Quebec","Neighborhood":"Vieux-Quebec","Time Zone":"UTC-05:00","Name":"America/Montreal","Area Code":"581"}
]
